[
    {
        "name": "Edwardsville Children's Museum",
        "address": "722 Holyoake Rd",
        "city": "Edwardsville",
        "category": "Museums, Kids Activities, Arts & Entertainment, Education, Active Life, Playgrounds, Children's Museums",
        "stars": 4.5,
        "latitude": 38.8043945,
        "longitude": -89.9497332
    },
    {
        "name": "Tony's Restaurant & 3rd Street Cafe",
        "address": "312 Piasa St",
        "city": "Alton",
        "category": "Restaurants, Specialty Food, Steakhouses, Food, Italian, Pizza, Pasta Shops",
        "stars": 3.0,
        "latitude": 38.896563,
        "longitude": -90.1862032987
    },
    {
        "name": "All In Shipping",
        "address": "5343 Belleville Crossing St",
        "city": "Belleville",
        "category": "Shipping Centers, Local Services",
        "stars": 5.0,
        "latitude": 38.5175856,
        "longitude": -90.0219285
    },
    {
        "name": "K-9 Groom Room",
        "address": "820 Industrial Dr",
        "city": "Troy",
        "category": "Pet Groomers, Pet Sitting, Pets, Pet Services",
        "stars": 4.0,
        "latitude": 38.7162443,
        "longitude": -89.8858296
    },
    {
        "name": "Crafty Crab",
        "address": "51 Ludwig Dr",
        "city": "Fairview Heights",
        "category": "Seafood, Restaurants",
        "stars": 2.5,
        "latitude": 38.6012982,
        "longitude": -89.9896835
    },
    {
        "name": "Collision XS",
        "address": "1416 Centreville Ave",
        "city": "Belleville",
        "category": "Auto Repair, Body Shops, Automotive",
        "stars": 4.5,
        "latitude": 38.5022786,
        "longitude": -90.00616971
    },
    {
        "name": "A & A Complete Services",
        "address": "",
        "city": "Smithton",
        "category": "Plumbing, Home Services",
        "stars": 1.0,
        "latitude": 38.3935,
        "longitude": -90.0107
    },
    {
        "name": "Heitz Optical",
        "address": "2415 Homer M Adams Pkwy",
        "city": "Alton",
        "category": "Eyewear & Opticians, Sporting Goods, Shopping, Medical Supplies, Laser Eye Surgery/Lasik, Optometrists, Health & Medical, Outdoor Gear",
        "stars": 4.0,
        "latitude": 38.918418,
        "longitude": -90.151949
    },
    {
        "name": "Ron & Jo's Firearms & Sporting Supplies",
        "address": "1562 Frontage Rd",
        "city": "O Fallon",
        "category": "Guns & Ammo, Sporting Goods, Shopping",
        "stars": 3.5,
        "latitude": 38.5984757,
        "longitude": -89.9591083
    },
    {
        "name": "The Cobblestone Eatery and Drinkery",
        "address": "115 W St Louis St",
        "city": "Lebanon",
        "category": "American (Traditional), Nightlife, Breakfast & Brunch, Event Planning & Services, Venues & Event Spaces, Italian, Bars, Restaurants",
        "stars": 3.5,
        "latitude": 38.6041071,
        "longitude": -89.8085329
    },
    {
        "name": "Joe’s Pizza and Pasta",
        "address": "5775 Godfrey Rd, Ste A",
        "city": "Godfrey",
        "category": "Salad, Pizza, Restaurants, Italian",
        "stars": 4.0,
        "latitude": 38.9491828,
        "longitude": -90.1903059
    },
    {
        "name": "Distler's Auto Repair",
        "address": "100 N Main St",
        "city": "O Fallon",
        "category": "Towing, Automotive, Auto Parts & Supplies, Auto Repair",
        "stars": 4.0,
        "latitude": 38.5616342,
        "longitude": -89.896862
    },
    {
        "name": "Kinzels Flower Shop",
        "address": "723 E 5th St",
        "city": "Alton",
        "category": "Shopping, Flowers & Gifts, Florists",
        "stars": 4.0,
        "latitude": 38.8913389123,
        "longitude": -90.173185
    },
    {
        "name": "Quality Inn & Suites Near St. Louis And I-255",
        "address": "1607 Pontiac Drive",
        "city": "Cahokia",
        "category": "Event Planning & Services, Hotels & Travel, Hotels, Home Services, Home Cleaning",
        "stars": 3.0,
        "latitude": 38.555865,
        "longitude": -90.164445
    },
    {
        "name": "Edley’s",
        "address": "2392 S State Rt 157",
        "city": "Glen Carbon",
        "category": "Barbeque, Restaurants",
        "stars": 3.0,
        "latitude": 38.7733254332,
        "longitude": -89.9929298076
    },
    {
        "name": "Imo's Pizza",
        "address": "2704 Godfrey Rd",
        "city": "Godfrey",
        "category": "Restaurants, Pizza",
        "stars": 2.5,
        "latitude": 38.9226213,
        "longitude": -90.1925518
    },
    {
        "name": "Cheddar's Scratch Kitchen",
        "address": "6600 N Illinois St",
        "city": "Fairview Heights",
        "category": "Comfort Food, American (New), American (Traditional), Restaurants, Southern",
        "stars": 2.5,
        "latitude": 38.5965175492,
        "longitude": -89.9841942417
    },
    {
        "name": "Downtown Diner",
        "address": "1400 Niedringhaus Ave",
        "city": "Granite City",
        "category": "Restaurants, Diners",
        "stars": 4.0,
        "latitude": 38.7013636,
        "longitude": -90.1472908
    },
    {
        "name": "Shiloh Veterinary Clinic",
        "address": "3690 Green Mount Crossing",
        "city": "Shiloh",
        "category": "Veterinarians, Pets",
        "stars": 5.0,
        "latitude": 38.5562740854,
        "longitude": -89.92863078
    },
    {
        "name": "Advanced Medical Weight Loss",
        "address": "11 Junction Dr",
        "city": "Glen Carbon",
        "category": "Weight Loss Centers, Beauty & Spas, Aestheticians, Health & Medical, Hair Loss Centers, Medical Spas, Hair Removal, Laser Hair Removal",
        "stars": 4.0,
        "latitude": 38.777262,
        "longitude": -89.957466
    },
    {
        "name": "Wendy's",
        "address": "5959 Belleville Crossing St",
        "city": "Belleville",
        "category": "Restaurants, Fast Food, Burgers",
        "stars": 2.0,
        "latitude": 38.5293592,
        "longitude": -90.0356064
    },
    {
        "name": "The TOCO Shop",
        "address": "825 W Main St",
        "city": "Belleville",
        "category": "Fashion, Local Services, Community Service/Non-Profit, Shopping, Thrift Stores, Used, Vintage & Consignment",
        "stars": 4.5,
        "latitude": 38.5147633,
        "longitude": -89.9955021
    },
    {
        "name": "Ashley HomeStore",
        "address": "6609 Edwardsville Crossing",
        "city": "Edwardsville",
        "category": "Home & Garden, Mattresses, Furniture Stores, Shopping, Home Decor",
        "stars": 2.5,
        "latitude": 38.7894269,
        "longitude": -89.9562624
    },
    {
        "name": "Taco Bell",
        "address": "1616 Camp Jackson Road",
        "city": "Cahokia",
        "category": "Fast Food, Restaurants, Breakfast & Brunch, Vegetarian, Mexican, Tacos",
        "stars": 1.5,
        "latitude": 38.5532348,
        "longitude": -90.1661599
    },
    {
        "name": "Super 8 by Wyndham Pontoon Beach IL/St. Louis MO Area",
        "address": "4141 Timberlake Drive, I-270 Exit 6A-B/Highway 111",
        "city": "Pontoon Beach",
        "category": "Hotels & Travel, Event Planning & Services, Hotels",
        "stars": 3.0,
        "latitude": 38.746866,
        "longitude": -90.073342
    },
    {
        "name": "Super Gyros",
        "address": "766 Carlyle Ave",
        "city": "Belleville",
        "category": "Fast Food, Greek, Italian, Restaurants",
        "stars": 4.5,
        "latitude": 38.5170210269,
        "longitude": -89.9513851956
    },
    {
        "name": "McDonald's",
        "address": "906 Carlyle Ave",
        "city": "Belleville",
        "category": "Restaurants, Coffee & Tea, Food, Burgers, Fast Food",
        "stars": 1.5,
        "latitude": 38.5175290922,
        "longitude": -89.9490435503
    },
    {
        "name": "Valentine's Restaurant",
        "address": "205 S State St",
        "city": "Freeburg",
        "category": "Steakhouses, Salad, Restaurants, Seafood",
        "stars": 4.0,
        "latitude": 38.4242058,
        "longitude": -89.9087975
    },
    {
        "name": "U.s. Post Office",
        "address": "10850 Lincoln Trl, Unit 20",
        "city": "Fairview Heights",
        "category": "Post Offices, Public Services & Government",
        "stars": 3.5,
        "latitude": 38.591816,
        "longitude": -89.9910359
    },
    {
        "name": "HCI Alternatives",
        "address": "1014 Eastport Plaza Dr",
        "city": "Collinsville",
        "category": "Cannabis Dispensaries, Health & Medical, Cannabis Clinics, Shopping",
        "stars": 2.5,
        "latitude": 38.6780873,
        "longitude": -90.0164324
    },
    {
        "name": "Mexico Tipico",
        "address": "501 S Madison St",
        "city": "Lebanon",
        "category": "Mexican, Restaurants, Salad, Soup",
        "stars": 4.5,
        "latitude": 38.5987159,
        "longitude": -89.8081851
    },
    {
        "name": "Martin Glass Company",
        "address": "25 Center Plz",
        "city": "Belleville",
        "category": "Contractors, Shopping, Kitchen & Bath, Building Supplies, Windshield Installation & Repair, Home & Garden, Home Decor, Plumbing, Automotive, Glass & Mirrors, Auto Glass Services, Home Services",
        "stars": 4.5,
        "latitude": 38.5042616,
        "longitude": -89.9478425
    },
    {
        "name": "The Green Solution",
        "address": "2021 Goose Lake Rd",
        "city": "Sauget",
        "category": "Shopping, Health & Medical, Cannabis Clinics, Cannabis Dispensaries",
        "stars": 3.5,
        "latitude": 38.5639668169,
        "longitude": -90.1338945329
    },
    {
        "name": "Li Chinese Reaturant",
        "address": "2659 N Illinois St",
        "city": "Swansea",
        "category": "Chinese, Restaurants",
        "stars": 3.0,
        "latitude": 38.5443273542,
        "longitude": -89.9841293629
    },
    {
        "name": "U.S. Bank Branch",
        "address": "6701 N Illinois St",
        "city": "Fairview Heights",
        "category": "Financial Services, Real Estate, Home Services, Banks & Credit Unions, Mortgage Brokers, Financial Advising",
        "stars": 1.5,
        "latitude": 38.597057,
        "longitude": -89.98674
    },
    {
        "name": "Auffenberg Mazda",
        "address": "105 Auto Ct",
        "city": "O'Fallon",
        "category": "Car Dealers, Auto Repair, Auto Parts & Supplies, Automotive",
        "stars": 3.5,
        "latitude": 38.5931471976,
        "longitude": -89.9595546288
    },
    {
        "name": "Taco Bell",
        "address": "620 E. Landmarks Blvd.",
        "city": "Alton",
        "category": "Restaurants, Fast Food, Tex-Mex, Tacos, Mexican",
        "stars": 1.0,
        "latitude": 38.888951,
        "longitude": -90.17685
    },
    {
        "name": "Piasa Bird",
        "address": "Mc Adams Pkwy",
        "city": "Alton",
        "category": "Public Services & Government, Local Flavor, Landmarks & Historical Buildings",
        "stars": 4.0,
        "latitude": 38.898111,
        "longitude": -90.199086
    },
    {
        "name": "Carisilo's Mexican Restaurant",
        "address": "1978 Vandalia St",
        "city": "Collinsville",
        "category": "Mexican, Restaurants",
        "stars": 4.0,
        "latitude": 38.695337,
        "longitude": -89.9666906
    },
    {
        "name": "MassageLuXe",
        "address": "6540 N Illinois, Ste 103",
        "city": "Fairview Heights",
        "category": "Day Spas, Skin Care, Massage, Beauty & Spas",
        "stars": 4.0,
        "latitude": 38.594567,
        "longitude": -89.983367
    },
    {
        "name": "Edwardsville Endodontics",
        "address": "1120 S State 157, Ste 102",
        "city": "Edwardsville",
        "category": "Endodontists, Health & Medical, Dentists",
        "stars": 3.5,
        "latitude": 38.785963,
        "longitude": -89.978298
    },
    {
        "name": "Midwest Appliance & Repair",
        "address": "8 Wade Sq",
        "city": "Belleville",
        "category": "Local Services, Appliances & Repair, Home & Garden, Appliances, Shopping",
        "stars": 1.5,
        "latitude": 38.529535,
        "longitude": -89.970553
    },
    {
        "name": "The Big Muddy Pub",
        "address": "554 E Broadway",
        "city": "Alton",
        "category": "Pubs, Nightlife, Bars",
        "stars": 4.0,
        "latitude": 38.8898081,
        "longitude": -90.1775763
    },
    {
        "name": "Service Protection Direct",
        "address": "2021 Goose Lake Rd, Ste b",
        "city": "Sauget",
        "category": "Automotive, Auto Repair",
        "stars": 1.5,
        "latitude": 38.5640019,
        "longitude": -90.1346178
    },
    {
        "name": "Dizzy Dugout Cards, Comics & Games",
        "address": "121 E Main St",
        "city": "Collinsville",
        "category": "Shopping, Tabletop Games, Books, Mags, Music & Video, Hobby Shops, Comic Books",
        "stars": 2.5,
        "latitude": 38.670481,
        "longitude": -89.9853934
    },
    {
        "name": "Magic Nails & Spa",
        "address": "1564 W U S 50",
        "city": "O Fallon",
        "category": "Hair Removal, Nail Salons, Eyebrow Services, Waxing, Beauty & Spas",
        "stars": 3.0,
        "latitude": 38.5944032087,
        "longitude": -89.955351711
    },
    {
        "name": "Clara B's Kitchen Table",
        "address": "",
        "city": "Swansea",
        "category": "Restaurants, Southern, Food Trucks, Food, Breakfast & Brunch, Desserts",
        "stars": 5.0,
        "latitude": 38.4749780415,
        "longitude": -89.9908761308
    },
    {
        "name": "Golden Corral Buffet & Grill",
        "address": "3360 Green Mt Crossing Rd",
        "city": "Shiloh",
        "category": "Buffets, American (Traditional), Restaurants",
        "stars": 2.5,
        "latitude": 38.574025,
        "longitude": -89.9238064
    },
    {
        "name": "Imo's Pizza",
        "address": "10791 Lincoln Trl",
        "city": "Fairview Heights",
        "category": "Health & Medical, Pizza, Restaurants, Chiropractors",
        "stars": 2.5,
        "latitude": 38.5932761,
        "longitude": -89.9910013
    },
    {
        "name": "Gentelin's On Broadway",
        "address": "122 E Broadway",
        "city": "Alton",
        "category": "Restaurants, American (New)",
        "stars": 4.0,
        "latitude": 38.8902684,
        "longitude": -90.183487
    },
    {
        "name": "Schnucks Seven Hills",
        "address": "907 E Hwy 50",
        "city": "O'Fallon",
        "category": "Drugstores, Food, Florists, Bakeries, Flowers & Gifts, Shopping, Grocery",
        "stars": 3.5,
        "latitude": 38.583239,
        "longitude": -89.896409
    },
    {
        "name": "Mueller Furniture",
        "address": "1004 E Main St",
        "city": "Belleville",
        "category": "Home Services, Baby Gear & Furniture, Furniture Stores, Home & Garden, Shopping, Local Flavor, Interior Design",
        "stars": 3.5,
        "latitude": 38.5131147,
        "longitude": -89.9700083
    },
    {
        "name": "Screamin Demon Tattoo",
        "address": "10509 Lincoln Trl",
        "city": "Fairview Heights",
        "category": "Beauty & Spas, Tattoo, Piercing",
        "stars": 4.0,
        "latitude": 38.593189,
        "longitude": -89.9981329
    },
    {
        "name": "Taco Bell",
        "address": "908 Edwardsville Road",
        "city": "Troy",
        "category": "Restaurants, Tex-Mex, Fast Food, Mexican, Tacos, Breakfast & Brunch",
        "stars": 2.0,
        "latitude": 38.732182,
        "longitude": -89.899187
    },
    {
        "name": "Conner Photography",
        "address": "101 E Main St",
        "city": "Collinsville",
        "category": "Event Planning & Services, Photographers",
        "stars": 5.0,
        "latitude": 38.6700303,
        "longitude": -89.9861384
    },
    {
        "name": "Steak-Out",
        "address": "2013 N 17th St",
        "city": "Swansea",
        "category": "Event Planning & Services, Food Delivery Services, Caterers, Restaurants, Food",
        "stars": 4.0,
        "latitude": 38.5410303,
        "longitude": -90.0022302
    },
    {
        "name": "Aroy Thai",
        "address": "1140 Central Park Dr",
        "city": "O Fallon",
        "category": "Thai, Restaurants",
        "stars": 3.5,
        "latitude": 38.5738228,
        "longitude": -89.9310173
    },
    {
        "name": "Flying J Travel Center",
        "address": "140 Racehorse Dr",
        "city": "East Saint Louis",
        "category": "Automotive, Gas Stations, Food, Convenience Stores",
        "stars": 3.0,
        "latitude": 38.575834,
        "longitude": -90.098261
    },
    {
        "name": "Brow Spa",
        "address": "10 Lincoln Hwy, Ste 102A",
        "city": "Fairview Heights",
        "category": "Hair Removal, Medical Spas, Skin Care, Waxing, Health & Medical, Beauty & Spas, Eyelash Service",
        "stars": 3.0,
        "latitude": 38.5922432,
        "longitude": -89.9836048
    },
    {
        "name": "Arby's",
        "address": "5790 Belleville Crossing St",
        "city": "Belleville",
        "category": "Restaurants, Sandwiches, Fast Food",
        "stars": 2.5,
        "latitude": 38.523756,
        "longitude": -90.031249
    },
    {
        "name": "Country Rock Cabaret",
        "address": "200 Monsanto Ave",
        "city": "Sauget",
        "category": "Adult Entertainment, Sports Bars, Nightlife, Bars, Dance Clubs",
        "stars": 3.5,
        "latitude": 38.602015,
        "longitude": -90.177057
    },
    {
        "name": "A Little Taste of Heaven Bakery",
        "address": "2709 N Center St",
        "city": "Maryville ",
        "category": "Food, Cupcakes, Bakeries, Patisserie/Cake Shop, Desserts, Donuts",
        "stars": 4.5,
        "latitude": 38.7312912,
        "longitude": -89.9583502
    },
    {
        "name": "Fancy Nails",
        "address": "100 Homer M Adams Pkwy, Ste C",
        "city": "Alton",
        "category": "Nail Salons, Beauty & Spas",
        "stars": 4.5,
        "latitude": 38.9225570289,
        "longitude": -90.1784471
    },
    {
        "name": "Mark Muffler Shop",
        "address": "139 Saint Andrews Ave",
        "city": "Edwardsville",
        "category": "Auto Parts & Supplies, Auto Repair, Oil Change Stations, Automotive, Tires",
        "stars": 4.5,
        "latitude": 38.8143018,
        "longitude": -89.947721
    },
    {
        "name": "Subway",
        "address": "101 W Washington",
        "city": "Millstadt",
        "category": "Restaurants, Sandwiches, Fast Food",
        "stars": 1.5,
        "latitude": 38.4616615265,
        "longitude": -90.0929554558
    },
    {
        "name": "Jimmy John's",
        "address": "3142 Nameoki Rd",
        "city": "Granite City",
        "category": "Food, Food Delivery Services, Fast Food, Delis, Sandwiches, Restaurants",
        "stars": 2.5,
        "latitude": 38.7196001,
        "longitude": -90.1223392
    },
    {
        "name": "Red Lobster",
        "address": "110 Ludwig Dr",
        "city": "Fairview Heights",
        "category": "Seafood, American (Traditional), Restaurants",
        "stars": 3.0,
        "latitude": 38.600549,
        "longitude": -89.992023
    },
    {
        "name": "Good Times Saloon",
        "address": "200 N Main St",
        "city": "Dupo",
        "category": "Nightlife, Sports Bars, Beer Bar, Bars, Restaurants, American (Traditional)",
        "stars": 3.0,
        "latitude": 38.520564,
        "longitude": -90.2099959
    },
    {
        "name": "QDOBA Mexican Eats",
        "address": "1100 Collinsville Crossing Blvd",
        "city": "Collinsville",
        "category": "Fast Food, Caterers, Restaurants, Event Planning & Services, Mexican",
        "stars": 3.0,
        "latitude": 38.677024,
        "longitude": -90.0153666
    },
    {
        "name": "Reputation Salon - An Aveda Concept Salon",
        "address": "214 Hillsboro Ave",
        "city": "Edwardsville",
        "category": "Makeup Artists, Beauty & Spas, Eyebrow Services, Hair Salons",
        "stars": 4.0,
        "latitude": 38.8137393,
        "longitude": -89.955964
    },
    {
        "name": "Wood Bakery",
        "address": "115 W 1st St",
        "city": "O Fallon",
        "category": "Donuts, Restaurants, Food, Bakeries",
        "stars": 4.0,
        "latitude": 38.5913571,
        "longitude": -89.9114148
    },
    {
        "name": "Taco Bell",
        "address": "1403 W US Highway 50",
        "city": "O Fallon",
        "category": "Mexican, Tacos, Tex-Mex, Fast Food, Breakfast & Brunch, Restaurants",
        "stars": 2.0,
        "latitude": 38.5921557583,
        "longitude": -89.9510618445
    },
    {
        "name": "Value City Furniture",
        "address": "10705 Lincoln Trl",
        "city": "Fairview Heights",
        "category": "Home Decor, Home & Garden, Mattresses, Furniture Stores, Shopping",
        "stars": 2.0,
        "latitude": 38.5941116524,
        "longitude": -89.9933588505
    },
    {
        "name": "Alton Memorial Hospital",
        "address": "1 Memorial Dr",
        "city": "Alton",
        "category": "Health & Medical, Medical Centers, Hospitals, Oncologist, Physical Therapy, Doctors",
        "stars": 2.5,
        "latitude": 38.8996057,
        "longitude": -90.159224
    },
    {
        "name": "JJ Spa & Nail",
        "address": "713 W Hwy 50",
        "city": "O'Fallon",
        "category": "Beauty & Spas, Nail Salons",
        "stars": 4.0,
        "latitude": 38.588141,
        "longitude": -89.924665
    },
    {
        "name": "David Anthony's",
        "address": "861 Seibert Rd",
        "city": "Scott AFB",
        "category": "Barbers, Beauty & Spas",
        "stars": 4.0,
        "latitude": 38.547972,
        "longitude": -89.869103
    },
    {
        "name": "The Franchise Sports Bar & Grill",
        "address": "601 E Edwardsville Rd",
        "city": "Wood River",
        "category": "American (Traditional), Restaurants, Bars, Sports Bars, Nightlife, Burgers",
        "stars": 3.5,
        "latitude": 38.8679343,
        "longitude": -90.0865422
    },
    {
        "name": "Olive Garden Italian Restaurant",
        "address": "25 Ludwig Dr",
        "city": "Fairview Heights",
        "category": "Salad, Restaurants, Nightlife, Bars, Wine Bars, Italian, Soup",
        "stars": 3.0,
        "latitude": 38.601598,
        "longitude": -89.987977
    },
    {
        "name": "Captain D's",
        "address": "649 Carlyle Ave",
        "city": "Belleville",
        "category": "American (Traditional), Fast Food, Restaurants, Fish & Chips, Seafood",
        "stars": 3.0,
        "latitude": 38.516857,
        "longitude": -89.9561086403
    },
    {
        "name": "O'Fallon Family Sports Park",
        "address": "301 Obernuefemann Rd",
        "city": "O'Fallon",
        "category": "Playgrounds, Active Life, Soccer, Parks",
        "stars": 4.0,
        "latitude": 38.5994866,
        "longitude": -89.9313451
    },
    {
        "name": "McDonald's",
        "address": "1 Rauckman Dr",
        "city": "Caseyville",
        "category": "Burgers, Coffee & Tea, Fast Food, Restaurants, Food",
        "stars": 1.5,
        "latitude": 38.6131177,
        "longitude": -90.0457877
    },
    {
        "name": "Monroe County YMCA",
        "address": "9514 Caring Way",
        "city": "Columbia",
        "category": "Active Life, Specialty Schools, Swimming Lessons/Schools, Fitness & Instruction, Local Services, Child Care & Day Care, Education, Gyms",
        "stars": 3.5,
        "latitude": 38.4130517463,
        "longitude": -90.1649362357
    },
    {
        "name": "Valvoline Instant Oil Change",
        "address": "6001 North Illinois",
        "city": "Fairview Heights",
        "category": "Automotive, Auto Repair, Oil Change Stations",
        "stars": 4.5,
        "latitude": 38.5874061706,
        "longitude": -89.9852466
    },
    {
        "name": "Hair Saloon For Men",
        "address": "6655 Edwardsville Crossing Dr, Ste F",
        "city": "Edwardsville",
        "category": "Beauty & Spas, Barbers, Hair Salons",
        "stars": 3.5,
        "latitude": 38.79037942,
        "longitude": -89.95377537
    },
    {
        "name": "Massage Envy - O'Fallon-IL",
        "address": "1140 Central Park Dr",
        "city": "O'Fallon",
        "category": "Massage, Health & Medical, Skin Care, Day Spas, Massage Therapy, Beauty & Spas",
        "stars": 3.0,
        "latitude": 38.573716,
        "longitude": -89.930955
    },
    {
        "name": "Davis Pet Hospital",
        "address": "816 S Morrison Ave",
        "city": "Collinsville",
        "category": "Pets, Pet Services, Veterinarians",
        "stars": 4.5,
        "latitude": 38.6594787,
        "longitude": -89.984476
    },
    {
        "name": "QuikTrip",
        "address": "2490 Troy Rd",
        "city": "Edwardsville",
        "category": "Convenience Stores, Gas Stations, Automotive, Food, Motorcycle Dealers, Restaurants, Fast Food",
        "stars": 4.5,
        "latitude": 38.7817075548,
        "longitude": -89.950378011
    },
    {
        "name": "The Axe Company",
        "address": "20 Kettle River Dr, Ste A",
        "city": "Glen Carbon",
        "category": "Axe Throwing, Active Life",
        "stars": 5.0,
        "latitude": 38.7806272596,
        "longitude": -89.9612198236
    },
    {
        "name": "Fire-n-Smoke Wood River",
        "address": "1800 Vaughn Rd",
        "city": "Wood River",
        "category": "Southern, Barbeque, Restaurants",
        "stars": 4.0,
        "latitude": 38.86588,
        "longitude": -90.06946
    },
    {
        "name": "Olive Oils & More",
        "address": "220 North Main St",
        "city": "Edwardsville",
        "category": "Specialty Food, Olive Oil, Food",
        "stars": 4.0,
        "latitude": 38.8135760188,
        "longitude": -89.9579468666
    },
    {
        "name": "Computer Room",
        "address": "208 Frank Scott Pkwy E, Ste 4",
        "city": "Swansea",
        "category": "IT Services & Computer Repair, Computers, Local Services, Shopping",
        "stars": 4.0,
        "latitude": 38.570495,
        "longitude": -89.978161
    },
    {
        "name": "Papa Murphy's",
        "address": "207 Harvard Dr",
        "city": "Edwardsville",
        "category": "Pizza, Restaurants",
        "stars": 4.0,
        "latitude": 38.791576,
        "longitude": -89.953346
    },
    {
        "name": "AT&T Store",
        "address": "6697 Center Grove Rd",
        "city": "Edwardsville",
        "category": "Home Services, Television Service Providers, Local Services, Telecommunications, Internet Service Providers, IT Services & Computer Repair, Professional Services, Mobile Phones, Shopping, Mobile Phone Accessories",
        "stars": 1.5,
        "latitude": 38.7817572912,
        "longitude": -89.9517843061
    },
    {
        "name": "Gateway Center",
        "address": "One Gateway Dr",
        "city": "Collinsville",
        "category": "Event Planning & Services, Venues & Event Spaces",
        "stars": 2.5,
        "latitude": 38.682039,
        "longitude": -90.017313
    },
    {
        "name": "Collinsville Aqua Park",
        "address": "10 Gateway Dr",
        "city": "Collinsville",
        "category": "Water Parks, Active Life, Amusement Parks",
        "stars": 3.0,
        "latitude": 38.6828139985,
        "longitude": -90.0196582393
    },
    {
        "name": "Mello Freeze",
        "address": "1437 Bond Ave",
        "city": "East Saint Louis",
        "category": "Ice Cream & Frozen Yogurt, Food",
        "stars": 5.0,
        "latitude": 38.612051,
        "longitude": -90.154869
    },
    {
        "name": "Washy's Pub",
        "address": "210 S Main St",
        "city": "Columbia",
        "category": "Restaurants, Bars, Pubs, Burgers, American (Traditional), Nightlife",
        "stars": 3.5,
        "latitude": 38.442231,
        "longitude": -90.1978506
    },
    {
        "name": "Darin Chiropractic",
        "address": "62040-3980, Ste D",
        "city": "Granite City",
        "category": "Acupuncture, Health & Medical, Physical Therapy, Weight Loss Centers, Massage Therapy, Chiropractors",
        "stars": 5.0,
        "latitude": 38.7236620855,
        "longitude": -90.1152646677
    },
    {
        "name": "Chateau La VIn",
        "address": "119 S Main St",
        "city": "Columbia",
        "category": "Beer, Wine & Spirits, Bars, Wineries, Food, Nightlife, Arts & Entertainment, Wine Bars, Wine Tasting Room",
        "stars": 5.0,
        "latitude": 38.442224,
        "longitude": -90.199316
    },
    {
        "name": "Hampton Inn & Suites St. Louis-Edwardsville",
        "address": "5723 Heritage Crossing Dr",
        "city": "Glen Carbon",
        "category": "Hotels & Travel, Event Planning & Services, Hotels, Venues & Event Spaces",
        "stars": 3.5,
        "latitude": 38.752169,
        "longitude": -90.005102
    },
    {
        "name": "Tiger Plumbing Heating Air Conditioning & Electrical Services",
        "address": "1902 Vandalia St, Ste 100",
        "city": "Collinsville",
        "category": "Professional Services, Heating & Air Conditioning/HVAC, Home Services, Electricians, Plumbing",
        "stars": 1.5,
        "latitude": 38.6941738,
        "longitude": -89.9684406
    },
    {
        "name": "MERS Goodwill",
        "address": "125 Commerce Ln",
        "city": "Fairview Heights",
        "category": "Shopping, Local Services, Community Service/Non-Profit, Thrift Stores",
        "stars": 3.5,
        "latitude": 38.5986467,
        "longitude": -89.9907462
    },
    {
        "name": "Mississippi Mud Pottery",
        "address": "310 E Broadway",
        "city": "Alton",
        "category": "Home & Garden, Shopping, Home Decor, Arts & Crafts",
        "stars": 4.5,
        "latitude": 38.8901081,
        "longitude": -90.181585
    },
    {
        "name": "Walmart Supercenter",
        "address": "1530 West Hwy 50",
        "city": "O Fallon",
        "category": "Shopping, Department Stores, Drugstores, Grocery, Discount Store, Pharmacy, Food, Fashion, Electronics, Health & Medical",
        "stars": 1.5,
        "latitude": 38.594952,
        "longitude": -89.9540669
    },
    {
        "name": "Safelite AutoGlass",
        "address": "9998 St Clair Ave",
        "city": "Fairview Heights",
        "category": "Windshield Installation & Repair, Body Shops, Auto Glass Services, Automotive, Auto Repair",
        "stars": 3.0,
        "latitude": 38.59377,
        "longitude": -90.016334
    },
    {
        "name": "Rally's",
        "address": "1600 Camp Jackson Road",
        "city": "Cahokia",
        "category": "Restaurants, Burgers, Fast Food",
        "stars": 1.5,
        "latitude": 38.5540526,
        "longitude": -90.166927
    },
    {
        "name": "LaRosa's Flowers",
        "address": "114 E State St",
        "city": "O Fallon",
        "category": "Party Supplies, Shopping, Flowers & Gifts, Florists, Gift Shops, Party & Event Planning, Event Planning & Services, Baby Gear & Furniture",
        "stars": 4.5,
        "latitude": 38.5924367,
        "longitude": -89.9104525
    },
    {
        "name": "Country Hearth Inn & Suites Edwardsville St. Louis",
        "address": "1013 Plummer St",
        "city": "Edwardsville",
        "category": "Hotels & Travel, Hotels, Event Planning & Services",
        "stars": 4.0,
        "latitude": 38.7888035,
        "longitude": -89.9787663
    },
    {
        "name": "Michael Murphy, OD",
        "address": "4933 Benchmark Centre Dr, Ste D, Vision Care Associates",
        "city": "Swansea",
        "category": "Optometrists, Health & Medical",
        "stars": 5.0,
        "latitude": 38.571258,
        "longitude": -89.9645138
    },
    {
        "name": "Nailhaus",
        "address": "1003 Century Dr",
        "city": "Edwardsville",
        "category": "Beauty & Spas, Nail Salons",
        "stars": 3.0,
        "latitude": 38.788841,
        "longitude": -89.9819219
    },
    {
        "name": "Allergy, Asthma & Immunology Center",
        "address": "325 Tamarack Ln",
        "city": "O Fallon",
        "category": "Health & Medical, Allergists, Doctors, Immunodermatologists, Internal Medicine",
        "stars": 4.5,
        "latitude": 38.5647556,
        "longitude": -89.901537
    },
    {
        "name": "Two Men and a Truck St. Louis East",
        "address": "19 Abc Pkwy",
        "city": "Collinsville",
        "category": "Home Services, Movers, Shopping, Packing Services, Packing Supplies",
        "stars": 4.0,
        "latitude": 38.6917204,
        "longitude": -90.0182911
    },
    {
        "name": "Kelly's Limousine Service",
        "address": "3375 State Route 162",
        "city": "Granite City",
        "category": "Transportation, Party Bus Rentals, Event Planning & Services, Hotels & Travel, Airport Shuttles, Limos",
        "stars": 3.5,
        "latitude": 38.7041819,
        "longitude": -90.1080365
    },
    {
        "name": "Sushi Ai",
        "address": "729 W Hwy 50",
        "city": "O'Fallon",
        "category": "Restaurants, Sushi Bars, Japanese",
        "stars": 3.0,
        "latitude": 38.588236064,
        "longitude": -89.9253574759
    },
    {
        "name": "Best Friends Animal Hospital & Pet Resort",
        "address": "202 Frank Scott Pkwy E",
        "city": "Swansea",
        "category": "Veterinarians, Pet Sitting, Pets, Pet Services",
        "stars": 5.0,
        "latitude": 38.5705574,
        "longitude": -89.9788297
    },
    {
        "name": "Bank of America Financial Center",
        "address": "910 Talon Dr",
        "city": "O Fallon",
        "category": "Financial Services, Mortgage Brokers, Home Services, Real Estate, Banks & Credit Unions",
        "stars": 2.5,
        "latitude": 38.592705,
        "longitude": -89.932153
    },
    {
        "name": "The Ice Cream Heaven",
        "address": "913 Sherman St",
        "city": "Belleville",
        "category": "Food, Ice Cream & Frozen Yogurt",
        "stars": 3.5,
        "latitude": 38.5275483365,
        "longitude": -89.9660859496
    },
    {
        "name": "Spring Valley Dental Group",
        "address": "904 E Highway 50",
        "city": "O Fallon",
        "category": "Cosmetic Dentists, General Dentistry, Health & Medical, Periodontists, Dentists",
        "stars": 2.5,
        "latitude": 38.5813401,
        "longitude": -89.8963689
    },
    {
        "name": "Firehouse Subs",
        "address": "1095 Belt Line Rd, Ste 100",
        "city": "Collinsville",
        "category": "Restaurants, Sandwiches, Delis, Fast Food",
        "stars": 4.0,
        "latitude": 38.6914715715,
        "longitude": -89.9857521095
    },
    {
        "name": "Fresh & Green Carpet Cleaning",
        "address": "1721 N 15th St",
        "city": "Belleville",
        "category": "Local Services, Carpet Cleaning",
        "stars": 5.0,
        "latitude": 38.537492,
        "longitude": -89.999238
    },
    {
        "name": "Super 8 by Wyndham Collinsville St. Louis",
        "address": "2 Gateway Dr., 11 Miles NE of St Louis",
        "city": "Collinsville",
        "category": "Event Planning & Services, Hotels & Travel, Hotels",
        "stars": 2.0,
        "latitude": 38.6828779,
        "longitude": -90.0156671
    },
    {
        "name": "Rapid Fire Sandwiches & Treats",
        "address": "115 N Bluff Rd",
        "city": "Collinsville",
        "category": "Sandwiches, Restaurants, Burgers",
        "stars": 3.5,
        "latitude": 38.6716328191,
        "longitude": -90.0140312513
    },
    {
        "name": "Sonic Drive-In",
        "address": "745 W Highway 50",
        "city": "O'fallon",
        "category": "Burgers, Ice Cream & Frozen Yogurt, Restaurants, Food, Fast Food",
        "stars": 1.5,
        "latitude": 38.5881713,
        "longitude": -89.9271964
    },
    {
        "name": "Chick-fil-A",
        "address": "6203 N Illinois St",
        "city": "Fairview Heights",
        "category": "Event Planning & Services, Restaurants, Caterers, Fast Food, Chicken Shop",
        "stars": 4.5,
        "latitude": 38.5899403,
        "longitude": -89.985405
    },
    {
        "name": "Hardee's",
        "address": "519 Belt Line Rd",
        "city": "Collinsville",
        "category": "Fast Food, Restaurants, Burgers",
        "stars": 2.5,
        "latitude": 38.6913172938,
        "longitude": -89.9802248687
    },
    {
        "name": "Subway",
        "address": "Shepard Plz, Ste 2",
        "city": "Maryville",
        "category": "Sandwiches, Restaurants, Fast Food",
        "stars": 2.5,
        "latitude": 38.736827539000004,
        "longitude": -89.9562028118
    },
    {
        "name": "Wang Gang Asian",
        "address": "1035 Century Dr",
        "city": "Edwardsville",
        "category": "Asian Fusion, Restaurants",
        "stars": 3.5,
        "latitude": 38.7872317,
        "longitude": -89.9815262
    },
    {
        "name": "Mark's Appliance",
        "address": "1507 Troy Rd",
        "city": "Edwardsville",
        "category": "Home & Garden, Home Decor, Appliances & Repair, Shopping, Local Services, Appliances, Mattresses, Electronics",
        "stars": 3.5,
        "latitude": 38.7947912,
        "longitude": -89.9515205
    },
    {
        "name": "A Wildflower Shop",
        "address": "2131 S State Rte 157",
        "city": "Edwardsville",
        "category": "Shopping, Party & Event Planning, Florists, Gift Shops, Event Planning & Services, Flowers & Gifts, Wedding Planning",
        "stars": 4.0,
        "latitude": 38.7779902613,
        "longitude": -89.985699921
    },
    {
        "name": "Papa Vito's - Millstadt",
        "address": "741 W Washington",
        "city": "Millstadt",
        "category": "Pizza, Italian, Restaurants",
        "stars": 3.5,
        "latitude": 38.4622167,
        "longitude": -90.0990108
    },
    {
        "name": "Great Rivers Tap & Grill",
        "address": "3559-B College Ave",
        "city": "Alton",
        "category": "Hotels, Restaurants, Diners, American (New), Hotels & Travel, American (Traditional), Event Planning & Services, Gastropubs",
        "stars": 3.5,
        "latitude": 38.9032424,
        "longitude": -90.1311499
    },
    {
        "name": "Subway",
        "address": "525 Troy Plz",
        "city": "Troy",
        "category": "Fast Food, Sandwiches, Restaurants",
        "stars": 1.5,
        "latitude": 38.7333664524,
        "longitude": -89.898355541
    },
    {
        "name": "Nail Care",
        "address": "2687 N Illinois St",
        "city": "Swansea",
        "category": "Nail Salons, Beauty & Spas",
        "stars": 4.5,
        "latitude": 38.543734,
        "longitude": -89.985322
    },
    {
        "name": "The UPS Store",
        "address": "17 Junction Dr",
        "city": "Glen Carbon",
        "category": "Local Services, Notaries, Shipping Centers, Printing Services, Mailbox Centers",
        "stars": 3.5,
        "latitude": 38.7755665325,
        "longitude": -89.956065517
    },
    {
        "name": "Afterwords Books",
        "address": "441 E Vandalia St",
        "city": "Edwardsville",
        "category": "Shopping, Books, Mags, Music & Video, Bookstores",
        "stars": 4.5,
        "latitude": 38.8125471,
        "longitude": -89.9501892
    },
    {
        "name": "Traveling Tails Inn",
        "address": "2764 Rte 66 Business Park Dr",
        "city": "Edwardsville",
        "category": "Pet Training, Pet Sitting, Pet Services, Pet Boarding, Pet Groomers, Pets",
        "stars": 3.5,
        "latitude": 38.7600466,
        "longitude": -90.0176618
    },
    {
        "name": "Arby's",
        "address": "5509 Godfrey Rd",
        "city": "Godfrey",
        "category": "Sandwiches, Fast Food, Restaurants",
        "stars": 1.5,
        "latitude": 38.9463706,
        "longitude": -90.190287
    },
    {
        "name": "Thai House",
        "address": "109 S Main St",
        "city": "Columbia",
        "category": "Thai, Restaurants, Noodles, Vegetarian",
        "stars": 4.5,
        "latitude": 38.442545,
        "longitude": -90.19959
    },
    {
        "name": "KFC",
        "address": "4914 W Main St",
        "city": "Belleville",
        "category": "Fast Food, Chicken Shop, Chicken Wings, Restaurants",
        "stars": 2.0,
        "latitude": 38.5434809785,
        "longitude": -90.028421516
    },
    {
        "name": "Casa Azteca",
        "address": "501 W US Hwy 50",
        "city": "O Fallon",
        "category": "Restaurants, American (New), Mexican",
        "stars": 3.5,
        "latitude": 38.588136,
        "longitude": -89.918591
    },
    {
        "name": "Gators",
        "address": "406 W Hwy 50",
        "city": "O'Fallon",
        "category": "Ice Cream & Frozen Yogurt, Food",
        "stars": 3.5,
        "latitude": 38.5883876,
        "longitude": -89.9156682
    },
    {
        "name": "The Gardens at SIUE",
        "address": "6 Arboretum Ln",
        "city": "Edwardsville",
        "category": "Botanical Gardens, Arts & Entertainment",
        "stars": 4.0,
        "latitude": 38.8026424,
        "longitude": -89.9922597
    },
    {
        "name": "Rally's",
        "address": "199 Alton Square Mall Dr",
        "city": "Alton",
        "category": "Burgers, Fast Food, Restaurants",
        "stars": 3.5,
        "latitude": 38.919925,
        "longitude": -90.1725472
    },
    {
        "name": "Fletcher's Kitchen & Tap",
        "address": "1524 Clinton Hills Pkwy",
        "city": "Swansea",
        "category": "Pizza, Restaurants, Steakhouses, American (Traditional)",
        "stars": 3.0,
        "latitude": 38.552231,
        "longitude": -89.9641824
    },
    {
        "name": "Spiritos Italian Grocery",
        "address": "228 W Main St",
        "city": "Collinsville",
        "category": "Grocery, Food",
        "stars": 4.5,
        "latitude": 38.669713,
        "longitude": -89.988223
    },
    {
        "name": "Dewey's Pizza",
        "address": "112 E Vandalia St",
        "city": "Edwardsville",
        "category": "Restaurants, Pizza, Italian, Salad, Gluten-Free",
        "stars": 4.5,
        "latitude": 38.811217402,
        "longitude": -89.9548667172
    },
    {
        "name": "CarMax",
        "address": "1254 Central Park Dr",
        "city": "O'Fallon",
        "category": "Car Buyers, Automotive, Used Car Dealers, Car Dealers",
        "stars": 4.5,
        "latitude": 38.5812229359,
        "longitude": -89.9370448433
    },
    {
        "name": "Mr. Appliance of Mid America",
        "address": "815 Lincoln Hwy, Ste 101",
        "city": "Fairview Heights",
        "category": "Local Services, Appliances & Repair",
        "stars": 4.0,
        "latitude": 38.5931677707,
        "longitude": -89.9731642093
    },
    {
        "name": "Amer Legion Post 199",
        "address": "58 S State Route 157",
        "city": "Edwardsville",
        "category": "Event Planning & Services, Venues & Event Spaces, Active Life, Golf",
        "stars": 3.5,
        "latitude": 38.8060516536,
        "longitude": -89.9662243829
    },
    {
        "name": "TruGreen Lawn Care",
        "address": "100 Green Park Dr",
        "city": "Collinsville",
        "category": "Home & Garden, Shopping, Landscaping, Lawn Services, Tree Services, Nurseries & Gardening, Home Services, Gardeners",
        "stars": 1.5,
        "latitude": 38.6835034021,
        "longitude": -90.002375821
    },
    {
        "name": "Burger King",
        "address": "1301 E Chain Of Rocks Rd",
        "city": "Pontoon Beach",
        "category": "Fast Food, Restaurants, Burgers",
        "stars": 1.5,
        "latitude": 38.7616233,
        "longitude": -90.0659561
    },
    {
        "name": "Foley's Tavern",
        "address": "7714 W Main",
        "city": "Belleville",
        "category": "Bars, Pubs, Nightlife",
        "stars": 3.0,
        "latitude": 38.5626746,
        "longitude": -90.0479324
    },
    {
        "name": "St. Louis Bread",
        "address": "1837 Homer Adams Pkwy, Ste B",
        "city": "Alton",
        "category": "Food, Soup, Breakfast & Brunch, Bagels, Salad, American (New), Sandwiches, Restaurants",
        "stars": 3.0,
        "latitude": 38.9163514087,
        "longitude": -90.1616976894
    },
    {
        "name": "Tip Top Nails",
        "address": "6411 N Illinois St",
        "city": "Fairview Heights",
        "category": "Beauty & Spas, Nail Salons",
        "stars": 3.0,
        "latitude": 38.592141,
        "longitude": -89.9855235
    },
    {
        "name": "Gia's Pizza",
        "address": "102 W State St",
        "city": "O Fallon",
        "category": "Restaurants, Pizza",
        "stars": 3.5,
        "latitude": 38.5924645,
        "longitude": -89.9112149
    },
    {
        "name": "McDill's Irish Pub",
        "address": "334 Saint Louis Rd",
        "city": "Collinsville",
        "category": "Bars, American (Traditional), Restaurants, Dive Bars, Nightlife, Irish Pub",
        "stars": 4.5,
        "latitude": 38.6634115,
        "longitude": -89.9983921
    },
    {
        "name": "Holiday Inn Express & Suites O'Fallon/Shiloh",
        "address": "3396 Green Mount Crossing Dr",
        "city": "Shiloh",
        "category": "Event Planning & Services, Hotels, Venues & Event Spaces, Hotels & Travel",
        "stars": 3.0,
        "latitude": 38.5739935796,
        "longitude": -89.9219750315
    },
    {
        "name": "Advantage Maytag",
        "address": "1010 Saint Louis Rd",
        "city": "Collinsville",
        "category": "Contractors, Local Services, Shopping, Home & Garden, Home Services, Appliances & Repair, Appliances",
        "stars": 1.5,
        "latitude": 38.65848,
        "longitude": -90.008843
    },
    {
        "name": "Hardee's",
        "address": "1099 Edwardsville Rd",
        "city": "Wood River",
        "category": "Restaurants, Fast Food, Burgers, Sandwiches",
        "stars": 2.5,
        "latitude": 38.8643718494,
        "longitude": -90.0793894
    },
    {
        "name": "CARSTAR Maryville",
        "address": "1 Mueller Dr",
        "city": "Maryville",
        "category": "Auto Repair, Auto Detailing, Towing, Auto Glass Services, Body Shops, Roadside Assistance, Automotive, Windshield Installation & Repair",
        "stars": 4.5,
        "latitude": 38.7307155,
        "longitude": -89.957963
    },
    {
        "name": "Ulta Beauty",
        "address": "6621 N Illinois St",
        "city": "Fairview Heights",
        "category": "Shopping, Beauty & Spas, Cosmetics & Beauty Supply, Skin Care, Hair Salons",
        "stars": 3.5,
        "latitude": 38.596645,
        "longitude": -89.9873485
    },
    {
        "name": "Al's Transmission",
        "address": "210 E Linden St",
        "city": "Edwardsville",
        "category": "Automotive, Auto Parts & Supplies, Transmission Repair, Auto Repair",
        "stars": 5.0,
        "latitude": 38.806651,
        "longitude": -89.9526260117
    },
    {
        "name": "ATI Physical Therapy",
        "address": "1000 Eleven S, Ste 1B",
        "city": "Columbia",
        "category": "Occupational Therapy, Rehabilitation Center, Doctors, Sports Medicine, Health & Medical, Physical Therapy",
        "stars": 2.0,
        "latitude": 38.458505,
        "longitude": -90.2236
    },
    {
        "name": "Walmart Supercenter",
        "address": "2608 Green Mount Commons Dr",
        "city": "Belleville",
        "category": "Drugstores, Grocery, Discount Store, Mobile Phones, Department Stores, Shopping, Fashion, Food, Electronics",
        "stars": 2.5,
        "latitude": 38.5221086,
        "longitude": -89.9230004
    },
    {
        "name": "The August Garden/Revival",
        "address": "1300 Niedringhaus Ave",
        "city": "Granite City",
        "category": "Florists, Shopping, Flowers & Gifts",
        "stars": 4.5,
        "latitude": 38.7014488,
        "longitude": -90.1505612
    },
    {
        "name": "Beauty Brands",
        "address": "6659 Edwardsville Crossing Dr",
        "city": "Edwardsville",
        "category": "Beauty & Spas, Shopping, Hair Salons, Cosmetics & Beauty Supply, Day Spas",
        "stars": 2.0,
        "latitude": 38.7889214,
        "longitude": -89.954344
    },
    {
        "name": "Gateway Urgent Care - Columbia",
        "address": "1000 11th S, Ste 1A",
        "city": "Columbia",
        "category": "Health & Medical, Urgent Care",
        "stars": 2.0,
        "latitude": 38.4582021548,
        "longitude": -90.2229204927
    },
    {
        "name": "Scott Inn",
        "address": "1510 Beech St",
        "city": "Scott AFB",
        "category": "Hotels, Event Planning & Services, Hotels & Travel",
        "stars": 3.5,
        "latitude": 38.5443540297,
        "longitude": -89.8653936267
    },
    {
        "name": "4 Hermanos Mexican Cuisine",
        "address": "4 Club Centre Ct, Ste A",
        "city": "Edwardsville",
        "category": "Bars, Nightlife, Hot Dogs, Restaurants, Mexican",
        "stars": 4.0,
        "latitude": 38.779251978,
        "longitude": -89.9830870224
    },
    {
        "name": "Belleville Public Library",
        "address": "121 E Washington St",
        "city": "Belleville",
        "category": "Libraries, Public Services & Government",
        "stars": 2.5,
        "latitude": 38.512732,
        "longitude": -89.981813
    },
    {
        "name": "Firehouse Subs",
        "address": "3214 Nameoki Rd",
        "city": "Granite City",
        "category": "Fast Food, Restaurants, Sandwiches, Delis",
        "stars": 3.5,
        "latitude": 38.7205158,
        "longitude": -90.1227105
    },
    {
        "name": "Dairy Queen Grill & Chill",
        "address": "1776 Lebanon Ave",
        "city": "Belleville",
        "category": "Restaurants, Food, Ice Cream & Frozen Yogurt, Fast Food, Burgers",
        "stars": 4.5,
        "latitude": 38.5353963728,
        "longitude": -89.9622908
    },
    {
        "name": "Jack in the Box",
        "address": "9502 Collinsville Rd",
        "city": "Collinsville",
        "category": "Fast Food, Mexican, Restaurants, Breakfast & Brunch, Tacos, Burgers",
        "stars": 1.5,
        "latitude": 38.6592484,
        "longitude": -90.0279682
    },
    {
        "name": "Walmart Supercenter",
        "address": "1040 Collinsville Crossing Blv",
        "city": "Collinsville",
        "category": "Tires, Discount Store, Automotive, Department Stores, Mobile Phones, Food, Electronics, Grocery, Drugstores, Shopping, Fashion",
        "stars": 2.0,
        "latitude": 38.674729,
        "longitude": -90.01724
    },
    {
        "name": "Sandy's Back Porch Gardens",
        "address": "2004 West Blvd",
        "city": "Belleville",
        "category": "Home & Garden, Shopping, Nurseries & Gardening, Holiday Decorations",
        "stars": 4.5,
        "latitude": 38.5232437,
        "longitude": -89.9491131
    },
    {
        "name": "Edison's Entertainment Complex",
        "address": "2477 S State Rte 157",
        "city": "Edwardsville",
        "category": "Active Life, Restaurants, Arcades, Arts & Entertainment, American (New), Bowling",
        "stars": 3.5,
        "latitude": 38.7718456,
        "longitude": -89.995793146
    },
    {
        "name": "LaBest Pet Resort",
        "address": "4933 Indian Hills Dr",
        "city": "Edwardsville",
        "category": "Vocational & Technical School, Dog Walkers, Pet Sitting, Pets, Pet Services, Pet Training, Specialty Schools, Pet Groomers, Education",
        "stars": 2.0,
        "latitude": 38.8393241,
        "longitude": -90.0116588
    },
    {
        "name": "Sonic Drive-In",
        "address": "1200 Admiral Weinel Blvd",
        "city": "Columbia",
        "category": "Fast Food, Burgers, Food, Restaurants, Ice Cream & Frozen Yogurt",
        "stars": 1.5,
        "latitude": 38.440635,
        "longitude": -90.2124265
    },
    {
        "name": "McDonald's",
        "address": "102 Niagara Ave",
        "city": "East Alton",
        "category": "Burgers, Restaurants, Coffee & Tea, Fast Food, Food",
        "stars": 3.0,
        "latitude": 38.882787,
        "longitude": -90.120658
    },
    {
        "name": "Domino's Pizza",
        "address": "1125 Columbia Ctr",
        "city": "Columbia",
        "category": "Pizza, Restaurants, Sandwiches, Chicken Wings",
        "stars": 2.0,
        "latitude": 38.444974,
        "longitude": -90.221003
    },
    {
        "name": "McDonald's",
        "address": "2605 N Illinois",
        "city": "Swansea",
        "category": "Restaurants, Coffee & Tea, Burgers, Fast Food, Food",
        "stars": 1.5,
        "latitude": 38.5420796964,
        "longitude": -89.984343946
    },
    {
        "name": "Monkey's Tree Service",
        "address": "429 Liberty Rd",
        "city": "Fairview Heights",
        "category": "Tree Services, Home Services",
        "stars": 2.0,
        "latitude": 38.581283,
        "longitude": -90.0085797
    },
    {
        "name": "Hertz Rent A Car",
        "address": "1939 West Highway 50",
        "city": "O Fallon",
        "category": "Hotels & Travel, Car Rental",
        "stars": 1.0,
        "latitude": 38.592151,
        "longitude": -89.963701
    },
    {
        "name": "La Quinta by Wyndham Pontoon Beach",
        "address": "14 Regency Parkway",
        "city": "Pontoon Beach",
        "category": "Event Planning & Services, Hotels, Hotels & Travel",
        "stars": 2.5,
        "latitude": 38.7450085,
        "longitude": -90.0719634
    },
    {
        "name": "Jan's Hallmark Shop",
        "address": "3610 Green Mount Crossing Dr",
        "city": "Shiloh",
        "category": "Shopping, Cards & Stationery, Arts & Crafts, Flowers & Gifts, Gift Shops, Event Planning & Services",
        "stars": 3.0,
        "latitude": 38.572011,
        "longitude": -89.9237538
    },
    {
        "name": "Malcolm W. Martin Memorial Park",
        "address": "185 W Trendley Ave",
        "city": "East St Louis",
        "category": "Active Life, Parks",
        "stars": 4.0,
        "latitude": 38.6223913,
        "longitude": -90.1754904
    },
    {
        "name": "Lion's Choice",
        "address": "450 Regency Park",
        "city": "O'Fallon",
        "category": "Restaurants, Sandwiches, Fast Food",
        "stars": 3.5,
        "latitude": 38.57993,
        "longitude": -89.9305058
    },
    {
        "name": "Jack Schmitt Chevrolet - Wood River",
        "address": "1870 E Edwardsville Rd",
        "city": "Wood River",
        "category": "Body Shops, Car Dealers, Automotive, Auto Repair, Used Car Dealers, Auto Parts & Supplies",
        "stars": 3.5,
        "latitude": 38.857109,
        "longitude": -90.0683
    },
    {
        "name": "Healthy Home Pest Control & Services",
        "address": "3680 Lebanon Ave",
        "city": "Belleville",
        "category": "Local Services, Pest Control",
        "stars": 2.0,
        "latitude": 38.5486094,
        "longitude": -89.9180133844
    },
    {
        "name": "PetSmart",
        "address": "5801 Belleville Crossing St",
        "city": "Belleville",
        "category": "Pet Stores, Pets, Pet Services, Pet Groomers, Pet Training",
        "stars": 2.0,
        "latitude": 38.5272719,
        "longitude": -90.0334552
    },
    {
        "name": "Auto Butler",
        "address": "1706 Homer M Adams Pkwy",
        "city": "Alton",
        "category": "Car Wash, Automotive",
        "stars": 1.5,
        "latitude": 38.919033999999996,
        "longitude": -90.164935
    },
    {
        "name": "Bodies Kneaded",
        "address": "26 Glen Ed Professional Park",
        "city": "Glen Carbon",
        "category": "Beauty & Spas, Health & Medical, Reflexology, Massage Therapy, Massage",
        "stars": 4.5,
        "latitude": 38.7812557,
        "longitude": -89.9788231
    },
    {
        "name": "Denny's",
        "address": "1310 E Chain Of Rocks Rd",
        "city": "Pontoon Beach",
        "category": "Restaurants, Breakfast & Brunch, Diners, American (Traditional)",
        "stars": 2.0,
        "latitude": 38.76001,
        "longitude": -90.0655758
    },
    {
        "name": "Great Clips",
        "address": "2708 N Illinois St",
        "city": "Belleville",
        "category": "Hair Salons, Beauty & Spas",
        "stars": 2.5,
        "latitude": 38.5439561,
        "longitude": -89.9839783826
    },
    {
        "name": "Bindy's",
        "address": "3705 Nameoki Rd",
        "city": "Granite City",
        "category": "American (Traditional), Restaurants",
        "stars": 3.5,
        "latitude": 38.7279958,
        "longitude": -90.1258963
    },
    {
        "name": "Taco Bell",
        "address": "760 Carlyle Ave",
        "city": "Belleville",
        "category": "Restaurants, Breakfast & Brunch, Tacos, Mexican, Tex-Mex, Fast Food",
        "stars": 2.0,
        "latitude": 38.517048,
        "longitude": -89.952377
    },
    {
        "name": "Drury Inn & Suites",
        "address": "1118 Central Park Dr",
        "city": "O'Fallon",
        "category": "Event Planning & Services, Hotels, Hotels & Travel",
        "stars": 4.0,
        "latitude": 38.5740445,
        "longitude": -89.9301473
    },
    {
        "name": "Agostino's Restaurant and Bar",
        "address": "130 Ludwig Dr",
        "city": "Fairview Heights",
        "category": "Italian, American (Traditional), Event Planning & Services, Caterers, Restaurants, Nightlife, Bars, Venues & Event Spaces",
        "stars": 4.0,
        "latitude": 38.600632,
        "longitude": -89.9929609
    },
    {
        "name": "Joe K's",
        "address": "2530 State St",
        "city": "Alton",
        "category": "Restaurants, Breakfast & Brunch, American (Traditional)",
        "stars": 4.5,
        "latitude": 38.9208418,
        "longitude": -90.1932191
    },
    {
        "name": "A. Burgess Locksmith",
        "address": "",
        "city": "O Fallon",
        "category": "Keys & Locksmiths, Automotive, Local Services, Auto Repair, Home Services",
        "stars": 5.0,
        "latitude": 38.5900004,
        "longitude": -89.9066314
    },
    {
        "name": "Comfort Inn",
        "address": "8 Commerce Dr",
        "city": "Collinsville",
        "category": "Event Planning & Services, Hotels, Hotels & Travel",
        "stars": 3.0,
        "latitude": 38.68433,
        "longitude": -90.013658
    },
    {
        "name": "Scott AFB Dog Park",
        "address": "201-267 E Clay St",
        "city": "Scott Air Force Base",
        "category": "Parks, Dog Parks, Active Life",
        "stars": 4.0,
        "latitude": 38.543434,
        "longitude": -89.860741
    },
    {
        "name": "Mariachi's",
        "address": "717 West Washington",
        "city": "Millstadt",
        "category": "Restaurants, Mexican",
        "stars": 4.0,
        "latitude": 38.4619633,
        "longitude": -90.0996524
    },
    {
        "name": "Belleville East Laundromat",
        "address": "1008 Carlyle Ave",
        "city": "Belleville",
        "category": "Laundry Services, Laundromat, Local Services, Dry Cleaning & Laundry",
        "stars": 3.0,
        "latitude": 38.518029,
        "longitude": -89.9464445
    },
    {
        "name": "Chicken Salad Chick",
        "address": "2323 Plum St, Ste 300",
        "city": "Edwardsville",
        "category": "Southern, Salad, Soup, Sandwiches, American (New), Restaurants, Delis, Chicken Shop",
        "stars": 4.0,
        "latitude": 38.785887,
        "longitude": -89.958211
    },
    {
        "name": "Great Clips",
        "address": "5751 Belleville Crossing St",
        "city": "Belleville",
        "category": "Shopping, Hair Salons, Cosmetics & Beauty Supply, Beauty & Spas",
        "stars": 2.0,
        "latitude": 38.5705986023,
        "longitude": -89.9789581299
    },
    {
        "name": "Twilight Comics",
        "address": "208 Frank Scott Pkwy E, Ste 6",
        "city": "Swansea",
        "category": "Books, Mags, Music & Video, Bookstores, Comic Books, Tabletop Games, Shopping",
        "stars": 4.5,
        "latitude": 38.5704753,
        "longitude": -89.9783194
    },
    {
        "name": "Papa John's Pizza",
        "address": "2700 Washington Avenue",
        "city": "Alton",
        "category": "Pizza, Restaurants",
        "stars": 2.0,
        "latitude": 38.9146336,
        "longitude": -90.1512177
    },
    {
        "name": "Seven Belleville",
        "address": "7 S High St",
        "city": "Belleville",
        "category": "Bars, Lounges, Nightlife, Restaurants, Sushi Bars, Venues & Event Spaces, Event Planning & Services",
        "stars": 3.5,
        "latitude": 38.5132179,
        "longitude": -89.983112
    },
    {
        "name": "Craig-Air Home Comfort Solutions",
        "address": "8630 Country Ln",
        "city": "Troy",
        "category": "Contractors, Electricians, Heating & Air Conditioning/HVAC, Home Services",
        "stars": 5.0,
        "latitude": 38.7037962,
        "longitude": -89.8615957
    },
    {
        "name": "Platinum Transportation STL",
        "address": "",
        "city": "Maryville",
        "category": "Party Bus Rentals, Limos, Hotels & Travel, Transportation, Event Planning & Services",
        "stars": 3.5,
        "latitude": 38.7315747,
        "longitude": -89.9580123
    },
    {
        "name": "Prime Service Cleaners",
        "address": "306 S Lincoln Ave",
        "city": "O Fallon",
        "category": "Local Services, Laundry Services, Dry Cleaning & Laundry",
        "stars": 5.0,
        "latitude": 38.5897678,
        "longitude": -89.910661
    },
    {
        "name": "Beautiful Nail & Spa",
        "address": "10850 Lincoln Trl, Ste 22",
        "city": "Fairview Heights",
        "category": "Beauty & Spas, Eyelash Service, Nail Salons",
        "stars": 2.5,
        "latitude": 38.5916061401,
        "longitude": -89.9890365601
    },
    {
        "name": "Relax Nail",
        "address": "1964 Vandalia St",
        "city": "Collinsville",
        "category": "Nail Salons, Nail Technicians, Beauty & Spas, Hair Removal, Waxing",
        "stars": 3.5,
        "latitude": 38.6955154766,
        "longitude": -89.9673022564
    },
    {
        "name": "St Elizabeth's Hospital",
        "address": "1512 N Green Mount Rd",
        "city": "O Fallon",
        "category": "Health & Medical, Hospitals",
        "stars": 2.0,
        "latitude": 38.5859164,
        "longitude": -89.9281155
    },
    {
        "name": "Petco",
        "address": "313 Homer Adams Pkwy",
        "city": "Alton",
        "category": "Pet Training, Pet Sitting, Pets, Pet Stores, Pet Groomers, Pet Services",
        "stars": 4.5,
        "latitude": 38.9189875948,
        "longitude": -90.1713730294
    },
    {
        "name": "Fleshtones",
        "address": "41 W Ferguson Ave",
        "city": "Wood River",
        "category": "Beauty & Spas, Piercing, Tattoo",
        "stars": 3.5,
        "latitude": 38.8610809,
        "longitude": -90.0994126
    },
    {
        "name": "Ragin Cajun Piano Bar",
        "address": "210 W 3rd St",
        "city": "Alton",
        "category": "Arts & Entertainment, Nightlife, Music Venues, Bars, Lounges, Cajun/Creole, Restaurants",
        "stars": 3.5,
        "latitude": 38.8913935,
        "longitude": -90.1881632
    },
    {
        "name": "The Corner Chill & Grill",
        "address": "341 Centerville Ave",
        "city": "Belleville",
        "category": "Restaurants, American (Traditional), Nightlife, Bars",
        "stars": 4.5,
        "latitude": 38.509422475,
        "longitude": -89.9936971181
    },
    {
        "name": "You Korean And Japanese Best Cuisine",
        "address": "108 Regency Park",
        "city": "O'Fallon",
        "category": "Restaurants, Korean, Sushi Bars, Japanese",
        "stars": 4.5,
        "latitude": 38.590477,
        "longitude": -89.939519
    },
    {
        "name": "Bond Auto Brokers",
        "address": "1913 S Illinois St",
        "city": "Belleville",
        "category": "Car Brokers, Automotive",
        "stars": 2.5,
        "latitude": 38.4898949,
        "longitude": -89.9840062
    },
    {
        "name": "NTB-National Tire & Battery",
        "address": "1703 Homer Adams Pkwy",
        "city": "Alton",
        "category": "Battery Stores, Shopping, Oil Change Stations, Automotive, Department Stores, Auto Repair, Tires, Fashion",
        "stars": 2.0,
        "latitude": 38.9180693248,
        "longitude": -90.166187
    },
    {
        "name": "Scott Credit Union",
        "address": "555 Lincoln Hwy",
        "city": "Fairview Heights",
        "category": "Mortgage Brokers, Real Estate, Banks & Credit Unions, Financial Services, Home Services",
        "stars": 3.0,
        "latitude": 38.5931168,
        "longitude": -89.9771714
    },
    {
        "name": "Hardee's",
        "address": "2516 Green Mount Commons Dr",
        "city": "Belleville",
        "category": "Burgers, Breakfast & Brunch, Restaurants, Fast Food",
        "stars": 3.0,
        "latitude": 38.5200387795,
        "longitude": -89.926108292
    },
    {
        "name": "Hilltop Auction & Banquet Center",
        "address": "2612 Fosterburg Rd",
        "city": "Alton",
        "category": "Antiques, Auction Houses, Venues & Event Spaces, Event Planning & Services, Shopping",
        "stars": 4.0,
        "latitude": 38.9149577,
        "longitude": -90.1175501
    },
    {
        "name": "Men's Wearhouse",
        "address": "6651 N Illinois St",
        "city": "Fairview Heights",
        "category": "Shopping, Fashion, Men's Clothing, Formal Wear, Shoe Stores, Plus Size Fashion, Bespoke Clothing",
        "stars": 3.5,
        "latitude": 38.59643,
        "longitude": -89.98566
    },
    {
        "name": "Willard's Formal Wear & Tailor Shop",
        "address": "926 Lincoln Hwy",
        "city": "Fairview Heights",
        "category": "Fashion, Sewing & Alterations, Local Services, Men's Clothing, Shopping",
        "stars": 2.5,
        "latitude": 38.59219,
        "longitude": -89.96895
    },
    {
        "name": "El Maguey",
        "address": "1534 Troy Rd",
        "city": "Edwardsville",
        "category": "Mexican, Restaurants",
        "stars": 3.5,
        "latitude": 38.7942593,
        "longitude": -89.9503898
    },
    {
        "name": "Drury Inn St. Louis Collinsville",
        "address": "602 N Bluff St",
        "city": "Collinsville",
        "category": "Event Planning & Services, Hotels, Hotels & Travel",
        "stars": 4.0,
        "latitude": 38.6833698,
        "longitude": -90.0101333
    },
    {
        "name": "NEC Technology Repair",
        "address": "1401 W Main St",
        "city": "Belleville",
        "category": "Local Services, Electronics Repair, IT Services & Computer Repair",
        "stars": 1.5,
        "latitude": 38.516933,
        "longitude": -90.000049
    },
    {
        "name": "Moussalli’s Prime",
        "address": "7415 State Route 143",
        "city": "Edwardsville",
        "category": "Steakhouses, Nightlife, Seafood, Cocktail Bars, Bars, Restaurants, American (New), Wine Bars",
        "stars": 4.5,
        "latitude": 38.803539,
        "longitude": -89.9180776
    },
    {
        "name": "BEAST Craft BBQ",
        "address": "20 S Belt W",
        "city": "Belleville",
        "category": "Restaurants, Barbeque",
        "stars": 4.5,
        "latitude": 38.5020518,
        "longitude": -89.9852273
    },
    {
        "name": "Duke Bakery",
        "address": "3202 Nameoki Rd",
        "city": "Granite City",
        "category": "Donuts, Food, Bakeries, Custom Cakes",
        "stars": 3.0,
        "latitude": 38.7202877,
        "longitude": -90.1218438
    },
    {
        "name": "Chipotle Mexican Grill",
        "address": "6415 N Illinois St",
        "city": "Fairview Heights",
        "category": "Mexican, Restaurants, Fast Food",
        "stars": 2.5,
        "latitude": 38.5919161065,
        "longitude": -89.9855235
    },
    {
        "name": "McDonald's",
        "address": "2400 Homer Adams Pkwy",
        "city": "Alton",
        "category": "Food, Burgers, Restaurants, Coffee & Tea, Fast Food",
        "stars": 2.0,
        "latitude": 38.9161826592,
        "longitude": -90.1515620854
    },
    {
        "name": "Ahne's Bakery",
        "address": "201 W Mill St",
        "city": "Waterloo",
        "category": "Restaurants, Bakeries, Food",
        "stars": 5.0,
        "latitude": 38.336171,
        "longitude": -90.1522965
    },
    {
        "name": "Golden Oak",
        "address": "4519 N Illinois St",
        "city": "Swansea",
        "category": "Pancakes, American (New), Wraps, Burgers, Breakfast & Brunch, Restaurants",
        "stars": 4.5,
        "latitude": 38.5704438212,
        "longitude": -89.9852564234
    },
    {
        "name": "Starbucks",
        "address": "1077 Collinsville Crossing Blvd",
        "city": "Collinsville",
        "category": "Coffee & Tea, Food",
        "stars": 3.5,
        "latitude": 38.67634,
        "longitude": -90.014506
    },
    {
        "name": "Beall Mansion An Elegant Bed & Breakfast",
        "address": "407 E 12th St",
        "city": "Alton",
        "category": "Public Services & Government, Venues & Event Spaces, Bed & Breakfast, Hotels & Travel, Hotels, Event Planning & Services, Landmarks & Historical Buildings, Arts & Entertainment, Museums, Wedding Chapels",
        "stars": 5.0,
        "latitude": 38.8978668,
        "longitude": -90.1795461
    },
    {
        "name": "Cafe on the Abbey",
        "address": "322 S Main St",
        "city": "Columbia",
        "category": "Restaurants, American (Traditional), American (New), Cafes, Food, Bakeries, Breakfast & Brunch",
        "stars": 4.0,
        "latitude": 38.4417035308,
        "longitude": -90.1960688084
    },
    {
        "name": "Geo's Wings & More",
        "address": "4307 W Main St",
        "city": "Belleville",
        "category": "American (Traditional), Barbeque, Restaurants, Sandwiches, Chicken Wings, Chinese",
        "stars": 3.5,
        "latitude": 38.5387445,
        "longitude": -90.0206783
    },
    {
        "name": "Troy Family Restaurant",
        "address": "307 Bargraves Blvd",
        "city": "Troy",
        "category": "Restaurants, American (New), Breakfast & Brunch",
        "stars": 3.0,
        "latitude": 38.732603,
        "longitude": -89.899449
    },
    {
        "name": "Watershed Nature Center",
        "address": "1591 Tower Ave",
        "city": "Edwardsville",
        "category": "Educational Services, Elementary Schools, Recreation Centers, Education, Specialty Schools, Local Services, Local Flavor, Community Service/Non-Profit, Active Life, Parks",
        "stars": 5.0,
        "latitude": 38.817067,
        "longitude": -89.9741734
    },
    {
        "name": "Country Inn & Suites",
        "address": "116 Regency Park",
        "city": "O'Fallon",
        "category": "Hotels & Travel, Event Planning & Services, Hotels",
        "stars": 2.5,
        "latitude": 38.5902694,
        "longitude": -89.9385828
    },
    {
        "name": "Subway",
        "address": "712 E Broadway",
        "city": "Alton",
        "category": "Fast Food, Sandwiches, Restaurants",
        "stars": 2.0,
        "latitude": 38.8896767789,
        "longitude": -90.1741157695
    },
    {
        "name": "Red Robin Gourmet Burgers and Brews",
        "address": "6699 Edwardsville Crossing Dr",
        "city": "Edwardsville",
        "category": "Hot Dogs, American (Traditional), Restaurants, Burgers",
        "stars": 3.0,
        "latitude": 38.7895595,
        "longitude": -89.9519582
    },
    {
        "name": "Subway",
        "address": "3901 N Belt W, Ste B",
        "city": "Bellville",
        "category": "Restaurants, Sandwiches, Fast Food",
        "stars": 1.5,
        "latitude": 38.5418445487,
        "longitude": -90.0138957454
    },
    {
        "name": "Park Grill",
        "address": "2800 E 23rd St",
        "city": "Granite City",
        "category": "Restaurants, American (Traditional), Salad, Burgers",
        "stars": 4.5,
        "latitude": 38.7019329,
        "longitude": -90.1219717
    },
    {
        "name": "Best Western Plus Parkway Hotel",
        "address": "1900 Homer Adams Pkwy",
        "city": "Alton",
        "category": "Event Planning & Services, Hotels, Hotels & Travel",
        "stars": 3.0,
        "latitude": 38.9182603,
        "longitude": -90.1626311
    },
    {
        "name": "Premium Cleaners",
        "address": "5166 N Illinois St",
        "city": "Fairview Heights",
        "category": "Local Services, Dry Cleaning & Laundry, Laundry Services",
        "stars": 3.0,
        "latitude": 38.5785669,
        "longitude": -89.984369
    },
    {
        "name": "The Weeping Willow Tea Room",
        "address": "123 Glen Crossing Rd",
        "city": "Glen Carbon",
        "category": "Soup, Restaurants, Food, Tea Rooms, Breakfast & Brunch, Sandwiches",
        "stars": 5.0,
        "latitude": 38.7533220874,
        "longitude": -89.9754617
    },
    {
        "name": "Southern Illinois Associates",
        "address": "16 Junction Dr W, Ste 2",
        "city": "Glen Carbon",
        "category": "Doctors, Psychiatrists, Counseling & Mental Health, Health & Medical",
        "stars": 2.5,
        "latitude": 38.7778781,
        "longitude": -89.9571528
    },
    {
        "name": "McDonald's",
        "address": "2045 Madison Ave",
        "city": "Granite City",
        "category": "Food, Fast Food, Restaurants, Burgers, Coffee & Tea",
        "stars": 1.5,
        "latitude": 38.7008355403,
        "longitude": -90.145560801
    },
    {
        "name": "Circle K",
        "address": "1242 Thouvenot Ln",
        "city": "Shiloh",
        "category": "Food, Gas Stations, Convenience Stores, Automotive",
        "stars": 4.0,
        "latitude": 38.5713264,
        "longitude": -89.9466327
    },
    {
        "name": "D.S. Vespers Sports Pub and Eatery",
        "address": "701 S Belt W",
        "city": "Belleville",
        "category": "Nightlife, Active Life, Shopping, Restaurants, Bars, Sports Bars, American (New), Mini Golf, Hobby Shops, Pubs",
        "stars": 3.0,
        "latitude": 38.5036169871,
        "longitude": -89.9947985644
    },
    {
        "name": "The Home Depot",
        "address": "1710 Homer Adams Pkwy",
        "city": "Alton",
        "category": "Nurseries & Gardening, Shopping, Home & Garden, Appliances, Hardware Stores",
        "stars": 3.5,
        "latitude": 38.9209721148,
        "longitude": -90.1651531
    },
    {
        "name": "Speedway Salvage",
        "address": "520 Old Madison Rd",
        "city": "East St. Louis",
        "category": "Car Dealers, Automotive, Auto Parts & Supplies",
        "stars": 3.0,
        "latitude": 38.659459,
        "longitude": -90.132913
    },
    {
        "name": "Comfort Inn",
        "address": "11 CrossRds Ct",
        "city": "Alton",
        "category": "Hotels & Travel, Hotels, Event Planning & Services",
        "stars": 3.0,
        "latitude": 38.902984000000004,
        "longitude": -90.131768
    },
    {
        "name": "Verizon",
        "address": "5902 N Illinois St",
        "city": "Fairview Heights",
        "category": "Shopping, Electronics, Internet Service Providers, Home Services, Professional Services, Mobile Phones",
        "stars": 2.0,
        "latitude": 38.5858372253,
        "longitude": -89.9843902179
    },
    {
        "name": "Bridal Parlour",
        "address": "3630 Green Mount Crossing Dr",
        "city": "Shiloh",
        "category": "Bridal, Shopping",
        "stars": 5.0,
        "latitude": 38.5718951,
        "longitude": -89.9237902
    },
    {
        "name": "Classic K Hamburgers",
        "address": "1613 Camp Jackson Rd",
        "city": "Cahokia",
        "category": "Restaurants, Fast Food, Burgers",
        "stars": 4.0,
        "latitude": 38.5542779,
        "longitude": -90.165924
    },
    {
        "name": "Sake Sushi Bar and Grill",
        "address": "1325 Central Park Dr",
        "city": "O Fallon",
        "category": "Japanese, Restaurants, Sushi Bars",
        "stars": 4.5,
        "latitude": 38.589075,
        "longitude": -89.945672
    },
    {
        "name": "Nettie B's",
        "address": "8201 W Main St",
        "city": "Belleville",
        "category": "Restaurants, Seafood, Southern",
        "stars": 4.0,
        "latitude": 38.5670968992,
        "longitude": -90.0501811132
    },
    {
        "name": "Stumpy's Spirits",
        "address": "1727 Centerville Rd",
        "city": "Columbia",
        "category": "Distilleries, Food",
        "stars": 5.0,
        "latitude": 38.4256670057,
        "longitude": -90.1617368683
    },
    {
        "name": "Dollar Tree",
        "address": "5831 Belleville Crossing St",
        "city": "Belleville",
        "category": "Discount Store, Shopping",
        "stars": 4.0,
        "latitude": 38.5260505676,
        "longitude": -90.0323104858
    },
    {
        "name": "Belleville Animal Clinic",
        "address": "1600 N Belt E",
        "city": "Belleville",
        "category": "Pet Stores, Pet Services, Pet Groomers, Veterinarians, Pets",
        "stars": 3.0,
        "latitude": 38.5240497,
        "longitude": -89.9611883
    },
    {
        "name": "New China",
        "address": "133 E Bethalto Dr",
        "city": "Bethalto",
        "category": "Restaurants, Chinese",
        "stars": 4.5,
        "latitude": 38.899857,
        "longitude": -90.038434
    },
    {
        "name": "Meineke Car Care Center",
        "address": "2248 Madison Ave",
        "city": "Granite City",
        "category": "Oil Change Stations, Automotive, Auto Repair, Tires",
        "stars": 3.5,
        "latitude": 38.703643,
        "longitude": -90.14091
    },
    {
        "name": "Starbucks",
        "address": "6105 Center Grove Rd",
        "city": "Edwardsville",
        "category": "Coffee & Tea, Food",
        "stars": 3.5,
        "latitude": 38.78772491,
        "longitude": -89.97810266
    },
    {
        "name": "Sleep Inn",
        "address": "140 Venita Drive",
        "city": "O Fallon",
        "category": "Hotels & Travel, Hotels, Event Planning & Services",
        "stars": 3.0,
        "latitude": 38.593634,
        "longitude": -89.937904
    },
    {
        "name": "Edwardsville Public Library",
        "address": "112 S Kansas St",
        "city": "Edwardsville",
        "category": "Libraries, Festivals, Arts & Entertainment, Local Flavor, Public Services & Government",
        "stars": 4.5,
        "latitude": 38.8111351,
        "longitude": -89.9538547
    },
    {
        "name": "Elegant Brides",
        "address": "6 Club Centre Ct",
        "city": "Edwardsville",
        "category": "Fashion, Shopping, Bridal, Formal Wear",
        "stars": 4.5,
        "latitude": 38.7793042,
        "longitude": -89.9818138
    },
    {
        "name": "Jack in the Box",
        "address": "31 Junction Dr",
        "city": "Glen Carbon",
        "category": "Fast Food, Tacos, Restaurants, Breakfast & Brunch, Burgers, Mexican",
        "stars": 2.5,
        "latitude": 38.7764546145,
        "longitude": -89.9552205205
    },
    {
        "name": "Plan Shop Live",
        "address": "2719 N Center St",
        "city": "Maryville",
        "category": "Food, Breakfast & Brunch, Sandwiches, Coffee & Tea, Specialty Food, Restaurants",
        "stars": 5.0,
        "latitude": 38.7314241,
        "longitude": -89.9572679022
    },
    {
        "name": "McDonald's",
        "address": "125 S Belt E",
        "city": "Belleville",
        "category": "Fast Food, Coffee & Tea, Burgers, Food, Restaurants",
        "stars": 2.0,
        "latitude": 38.5029623421,
        "longitude": -89.9821762982
    },
    {
        "name": "Starbucks",
        "address": "6680 Edwardsville Crossing Dr",
        "city": "Edwardsville",
        "category": "Coffee & Tea, Food",
        "stars": 3.0,
        "latitude": 38.788804999999996,
        "longitude": -89.951762
    },
    {
        "name": "QDOBA Mexican Eats",
        "address": "3210 Green Mount Crossing Dr, Unit 10",
        "city": "Shiloh",
        "category": "Caterers, Event Planning & Services, Restaurants, Fast Food, Mexican",
        "stars": 2.5,
        "latitude": 38.57327993,
        "longitude": -89.9275488406
    },
    {
        "name": "Beloman",
        "address": "5909 Cool Sports Rd",
        "city": "Belleville",
        "category": "Plumbing, Home Services, Air Duct Cleaning, Pest Control, Home & Garden, Professional Services, Advertising, Metal Fabricators, Kitchen & Bath, Shopping, Heating & Air Conditioning/HVAC, Contractors, Local Services",
        "stars": 5.0,
        "latitude": 38.52263,
        "longitude": -90.03605
    },
    {
        "name": "Long John Silver's",
        "address": "1224 East Edwardsville Rd",
        "city": "Wood River",
        "category": "Seafood, Fast Food, Restaurants",
        "stars": 4.0,
        "latitude": 38.8630206,
        "longitude": -90.0784031
    },
    {
        "name": "Flamentco's the Place",
        "address": "711 W US Hwy 50",
        "city": "O'fallon",
        "category": "Pizza, Restaurants, Diners, Food, Chicken Wings, American (New), Salad",
        "stars": 4.0,
        "latitude": 38.5883903828,
        "longitude": -89.9247954634
    },
    {
        "name": "Aspen Dental",
        "address": "3024 S State Rte 159",
        "city": "Glen Carbon",
        "category": "Health & Medical, Endodontists, Dentists, Cosmetic Dentists, General Dentistry, Oral Surgeons",
        "stars": 1.0,
        "latitude": 38.778167,
        "longitude": -89.953289
    },
    {
        "name": "Valvoline Instant Oil Change",
        "address": "3801 South State Route 159",
        "city": "Glen Carbon",
        "category": "Oil Change Stations, Auto Repair, Automotive",
        "stars": 3.5,
        "latitude": 38.7760303,
        "longitude": -89.956882
    },
    {
        "name": "Wendy's",
        "address": "6204 N. Illinois St.",
        "city": "Fairview Hts.",
        "category": "Fast Food, Restaurants, Burgers",
        "stars": 2.0,
        "latitude": 38.5900900459,
        "longitude": -89.9844177842
    },
    {
        "name": "Tri-City Speedway",
        "address": "5100 Nameoki Rd",
        "city": "Granite City",
        "category": "Active Life, Racing Experience",
        "stars": 4.5,
        "latitude": 38.7527493,
        "longitude": -90.0969944
    },
    {
        "name": "Penn Station East Coast Subs",
        "address": "231 Harvard Dr",
        "city": "Edwardsville",
        "category": "Sandwiches, American (New), Cheesesteaks, Restaurants",
        "stars": 3.5,
        "latitude": 38.7919159,
        "longitude": -89.953209
    },
    {
        "name": "Hemingway's Zen Garden",
        "address": "123 E 1st St",
        "city": "O'Fallon",
        "category": "Restaurants, Beer, Wine & Spirits, Bars, American (Traditional), Nightlife, Food, Wine Bars, Pubs",
        "stars": 3.5,
        "latitude": 38.5913764,
        "longitude": -89.9098951
    },
    {
        "name": "Texas Roadhouse",
        "address": "1412 Central Park Cir",
        "city": "Shiloh",
        "category": "American (Traditional), Barbeque, Restaurants, Steakhouses",
        "stars": 3.5,
        "latitude": 38.577236,
        "longitude": -89.93332
    },
    {
        "name": "Pirtles Famous Ice Cream",
        "address": "1040 Carlyle Ave",
        "city": "Belleville",
        "category": "Food, Ice Cream & Frozen Yogurt",
        "stars": 3.5,
        "latitude": 38.5180295,
        "longitude": -89.9455748
    },
    {
        "name": "Dawn Corwin Creative Photography",
        "address": "3320 N Illinois St",
        "city": "Swansea",
        "category": "Event Planning & Services, Session Photography, Photographers, Event Photography",
        "stars": 1.0,
        "latitude": 38.551571,
        "longitude": -89.98377
    },
    {
        "name": "Frederico's",
        "address": "114 N Main St",
        "city": "Waterloo",
        "category": "Pizza, Italian, Restaurants",
        "stars": 4.0,
        "latitude": 38.3366523,
        "longitude": -90.1503182
    },
    {
        "name": "Crazy Bowls & Wraps",
        "address": "4190 Green Mount Crossing Dr",
        "city": "Shiloh",
        "category": "Salad, Fast Food, Wraps, Restaurants",
        "stars": 4.0,
        "latitude": 38.5712292,
        "longitude": -89.9277855
    },
    {
        "name": "Dairy Queen",
        "address": "3905 S State Rte 159",
        "city": "Glen Carbon",
        "category": "Ice Cream & Frozen Yogurt, Restaurants, Burgers, Food, Fast Food",
        "stars": 1.5,
        "latitude": 38.77458102,
        "longitude": -89.9574789405
    },
    {
        "name": "Penn Station",
        "address": "1128 Collinsville Crossing Blvd",
        "city": "Collinsville",
        "category": "Cheesesteaks, Restaurants, Sandwiches",
        "stars": 2.0,
        "latitude": 38.6775041,
        "longitude": -90.0145465
    },
    {
        "name": "Smokin K's BBQ & More",
        "address": "548 E Washington",
        "city": "Millstadt",
        "category": "Event Planning & Services, Bars, Breakfast & Brunch, Barbeque, Caterers, Sandwiches, Nightlife, Restaurants",
        "stars": 3.5,
        "latitude": 38.4621835,
        "longitude": -90.0834796
    },
    {
        "name": "O’bar Cafe",
        "address": "1063 S State Rte 157, Ste 12",
        "city": "Edwardsville",
        "category": "Breakfast & Brunch, Coffee & Tea, Juice Bars & Smoothies, Food, Restaurants",
        "stars": 4.0,
        "latitude": 38.7896532,
        "longitude": -89.9804824
    },
    {
        "name": "Belleville Fish and Chicken",
        "address": "3 Wade Sq",
        "city": "Belleville",
        "category": "Tapas/Small Plates, Food, Chicken Wings, Desserts, Southern, Sandwiches, Seafood, Restaurants",
        "stars": 4.0,
        "latitude": 38.5308282978,
        "longitude": -89.969895134
    },
    {
        "name": "Hokkaido Seafood Buffet and Grill",
        "address": "4580 N Illinois St",
        "city": "Swansea",
        "category": "Buffets, Seafood, Chinese, Restaurants",
        "stars": 3.0,
        "latitude": 38.5699032,
        "longitude": -89.9842152
    },
    {
        "name": "Winchester Place Apartments",
        "address": "100 Winchester Pl",
        "city": "Fairview Heights",
        "category": "Real Estate, Apartments, Home Services",
        "stars": 2.0,
        "latitude": 38.572331,
        "longitude": -89.98193
    },
    {
        "name": "Brent Bergheger Chrysler Dodge Jeep Ram",
        "address": "220 W Main St",
        "city": "Mascoutah",
        "category": "Oil Change Stations, Car Dealers, Automotive, Auto Repair",
        "stars": 3.5,
        "latitude": 38.4901534225,
        "longitude": -89.8029733865
    },
    {
        "name": "Doc's Smokehouse",
        "address": "6108 Shoger Dr, Ste D",
        "city": "Edwardsville",
        "category": "Event Planning & Services, Food, Burgers, Salad, Sandwiches, Restaurants, Smokehouse, Caterers, Fast Food, American (Traditional), Barbeque",
        "stars": 4.5,
        "latitude": 38.7918317623,
        "longitude": -89.9780601534
    },
    {
        "name": "Taqueria Olvera",
        "address": "341 Market Pl",
        "city": "Fairview Heights",
        "category": "Restaurants, Mexican",
        "stars": 4.5,
        "latitude": 38.5961477349,
        "longitude": -89.9882179399
    },
    {
        "name": "American Nails",
        "address": "5720 N Belt W, Ste 30",
        "city": "Belleville",
        "category": "Beauty & Spas, Nail Salons",
        "stars": 1.5,
        "latitude": 38.540375,
        "longitude": -90.035179
    },
    {
        "name": "Don's Hardware",
        "address": "1454 Boul Ave",
        "city": "Swansea",
        "category": "Shopping, Home & Garden, Hardware Stores",
        "stars": 4.0,
        "latitude": 38.5303591,
        "longitude": -89.9866151
    },
    {
        "name": "Great Clips",
        "address": "501 Beltline Rd, Ste 20-1, Lakeside Plaza",
        "city": "Collinsville",
        "category": "Hair Salons, Beauty & Spas",
        "stars": 5.0,
        "latitude": 38.692458,
        "longitude": -89.978575
    },
    {
        "name": "Valvoline Instant Oil Change",
        "address": "419 Carlyle Rd",
        "city": "Belleville",
        "category": "Automotive, Auto Repair, Oil Change Stations",
        "stars": 4.5,
        "latitude": 38.515863,
        "longitude": -89.9600698199
    },
    {
        "name": "Kelly's Butcher Shop & Deli",
        "address": "804 S Main St",
        "city": "Troy",
        "category": "Food, Restaurants, Specialty Food, Cheese Shops, Meat Shops, Delis",
        "stars": 4.0,
        "latitude": 38.7184513,
        "longitude": -89.8830528
    },
    {
        "name": "Bin 51 Wine & Spirits",
        "address": "200 S Buchanan",
        "city": "Edwardsville",
        "category": "Beer, Wine & Spirits, Food",
        "stars": 3.5,
        "latitude": 38.811932,
        "longitude": -89.955977
    },
    {
        "name": "Dairyland",
        "address": "501 S Main St",
        "city": "Dupo",
        "category": "Restaurants",
        "stars": 5.0,
        "latitude": 38.514134,
        "longitude": -90.209721
    },
    {
        "name": "Taco Bell",
        "address": "15 S 59th St",
        "city": "Belleville",
        "category": "Breakfast & Brunch, Tacos, Restaurants, Fast Food, Tex-Mex, Mexican",
        "stars": 2.0,
        "latitude": 38.54841,
        "longitude": -90.03591
    },
    {
        "name": "Cracker Barrel Old Country Store",
        "address": "3160 Green Mount Crossing Dr",
        "city": "Shiloh",
        "category": "American (Traditional), Event Planning & Services, Breakfast & Brunch, Caterers, Comfort Food, Southern, Restaurants, American (New)",
        "stars": 3.5,
        "latitude": 38.57419,
        "longitude": -89.9268959721
    },
    {
        "name": "Club Fitness - O'Fallon",
        "address": "1234 Central Park Drive",
        "city": "O'Fallon",
        "category": "Active Life, Gyms, Fitness & Instruction, Trainers",
        "stars": 3.5,
        "latitude": 38.5785104909,
        "longitude": -89.9349317234
    },
    {
        "name": "The Wildey Theatre",
        "address": "252 N Main St",
        "city": "Edwardsville",
        "category": "Nightlife, Arts & Entertainment, Cinema, Music Venues",
        "stars": 4.0,
        "latitude": 38.8141996398,
        "longitude": -89.9584978782
    },
    {
        "name": "Granite City Urgent Care Walk In Clinic",
        "address": "2861 Madison Ave",
        "city": "Granite City",
        "category": "Medical Centers, Walk-in Clinics, Urgent Care, Health & Medical",
        "stars": 2.0,
        "latitude": 38.714213,
        "longitude": -90.1287094
    },
    {
        "name": "Pure Natur Salon & Spa",
        "address": "6540 N Illinois St, Ste 105",
        "city": "Fairview Heights",
        "category": "Beauty & Spas, Day Spas, Hair Salons, Hair Removal, Eyelash Service, Waxing",
        "stars": 4.5,
        "latitude": 38.594559,
        "longitude": -89.982983
    },
    {
        "name": "T-Mobile",
        "address": "1600 West Highway 50",
        "city": "O'Fallon",
        "category": "Shopping, Mobile Phones, Telecommunications, Mobile Phone Accessories, Electronics, Local Services, IT Services & Computer Repair",
        "stars": 2.0,
        "latitude": 38.5928617,
        "longitude": -89.9538842203
    },
    {
        "name": "Express Medical Care",
        "address": "5031 N Illinois St",
        "city": "Fairview Heights",
        "category": "Health & Medical, Urgent Care",
        "stars": 2.5,
        "latitude": 38.5766654,
        "longitude": -89.9853725
    },
    {
        "name": "St. Louis Bread",
        "address": "5720 Belleville Crossing St",
        "city": "Belleville",
        "category": "Restaurants, Salad, Breakfast & Brunch, Soup, Bagels, Food, Sandwiches",
        "stars": 2.5,
        "latitude": 38.5254573,
        "longitude": -90.0346888
    },
    {
        "name": "Dobbs Tire & Auto Centers",
        "address": "4200 Green Mt Crossing Dr",
        "city": "Shiloh",
        "category": "Automotive, Oil Change Stations, Tires, Auto Repair",
        "stars": 2.5,
        "latitude": 38.5710968836,
        "longitude": -89.9284504468
    },
    {
        "name": "Stone Falls Dental Care",
        "address": "4945 Stone Falls Ctr, Ste A",
        "city": "O'Fallon",
        "category": "Periodontists, Dentists, General Dentistry, Cosmetic Dentists, Health & Medical",
        "stars": 4.5,
        "latitude": 38.5723659,
        "longitude": -89.962849
    },
    {
        "name": "Sawmill BBQ",
        "address": "4060 Mississippi Ave",
        "city": "Cahokia",
        "category": "Specialty Food, Sandwiches, Barbeque, Restaurants, Food, Breakfast & Brunch",
        "stars": 4.5,
        "latitude": 38.573296,
        "longitude": -90.186998
    },
    {
        "name": "East Town Donuts",
        "address": "1101 Caseyville Rd, Ste E",
        "city": "Caseyville",
        "category": "Donuts, Food",
        "stars": 4.5,
        "latitude": 38.645585,
        "longitude": -90.0159222
    },
    {
        "name": "Target",
        "address": "4701 N Illinois St",
        "city": "Fairview Heights",
        "category": "Home & Garden, Shopping, Grocery, Drugstores, Fashion, Department Stores, Food, Electronics, Furniture Stores",
        "stars": 3.5,
        "latitude": 38.572075,
        "longitude": -89.98683
    },
    {
        "name": "Safelite AutoGlass",
        "address": "320 Homer Adams Pkwy, Ste A",
        "city": "Alton",
        "category": "Automotive, Auto Glass Services, Windshield Installation & Repair, Body Shops",
        "stars": 3.5,
        "latitude": 38.9201748,
        "longitude": -90.1695632
    },
    {
        "name": "Buffalo Wild Wings",
        "address": "5600 Belleville Crossing St",
        "city": "Belleville",
        "category": "Bars, American (Traditional), Chicken Wings, Sports Bars, Nightlife, Restaurants",
        "stars": 2.5,
        "latitude": 38.524889,
        "longitude": -90.033922
    },
    {
        "name": "CPR Cell Phone Repair Fairview Heights",
        "address": "103A Frey Ln",
        "city": "Fairview Heights",
        "category": "Shopping, Local Services, IT Services & Computer Repair, Telecommunications, Mobile Phones, Mobile Phone Repair, Electronics Repair",
        "stars": 3.5,
        "latitude": 38.5922128427,
        "longitude": -89.9787480148
    },
    {
        "name": "Karban Knotty Pines",
        "address": "4569 Buss Branch Rd",
        "city": "Waterloo",
        "category": "Nightlife, Bars",
        "stars": 4.0,
        "latitude": 38.3600966,
        "longitude": -90.0433526
    },
    {
        "name": "Green Mount Lakes",
        "address": "1200 Greenfield Pl",
        "city": "O'Fallon",
        "category": "Apartments, Home Services, Real Estate",
        "stars": 3.5,
        "latitude": 38.571898,
        "longitude": -89.934619
    },
    {
        "name": "The Happy Bakery",
        "address": "102 W 6th St",
        "city": "O'Fallon",
        "category": "Food, Restaurants, Vegetarian, Custom Cakes, Specialty Food, Vegan, Cupcakes, Bakeries",
        "stars": 4.5,
        "latitude": 38.5877284,
        "longitude": -89.9112505
    },
    {
        "name": "Domino's Pizza",
        "address": "1900 N Belt E",
        "city": "Belleville",
        "category": "Sandwiches, Pizza, Chicken Wings, Restaurants",
        "stars": 2.0,
        "latitude": 38.5203056,
        "longitude": -89.9566715
    },
    {
        "name": "R & R Transportation Service",
        "address": "",
        "city": "Fairview Heights",
        "category": "Hotels & Travel, Transportation, Airport Shuttles, Taxis",
        "stars": 3.5,
        "latitude": 38.6005324,
        "longitude": -90.0093266
    },